{"type":"FeatureCollection","features":[{"type":"Feature","properties":{"location_id":"softdisk","title":"Softdisk Offices","address":"600 Common St","city":"Shreveport","state":"LA","zip":71101},"geometry":{"type":"Point","coordinates":[-93.75147,32.5092048]}},{"type":"Feature","properties":{"location_id":"idlakehouse","title":"id Lake House (?-1990?1991?)","address":"7450 S Lakeshore Dr","city":"Shreveport","state":"LA","zip":71119},"geometry":{"type":"Point","coordinates":[-93.891133,32.510521]}},{"type":"Feature","properties":{"location_id":"idlaprada","title":"La Prada apartments (1991-1992)","address":"1901 Pinehurst Ln","city":"Mesquite","state":"TX","zip":75150},"geometry":{"type":"Point","coordinates":[-96.635597,32.839867]}},{"type":"Feature","properties":{"location_id":"idcube","title":"id Cube (1992-2000)","address":"18601 Lyndon B Johnson Fwy","city":"Mesquite","state":"TX","zip":75150},"geometry":{"type":"Point","coordinates":[-96.6274768,32.8036719]}},{"type":"Feature","properties":{"location_id":"idmesquite","title":"id Software (2000-2011)","address":"4070 Towne Crossing Blvd","city":"Mesquite","state":"TX","zip":75150},"geometry":{"type":"Point","coordinates":[-96.6313815,32.8170438]}},{"type":"Feature","properties":{"location_id":"idsoftware","title":"id Software (2011-current)","address":"1500 N Greenville Ave","city":"Richardson","state":"TX","zip":75081},"geometry":{"type":"Point","coordinates":[-96.718189,32.968731]}}]}