{"type":"FeatureCollection","features":[{"type":"Feature","properties":{"location_id":"bestwestern","title":"Best Western Inn","address":"12721 I-635","city":"Garland","state":"TX","zip":75041},"geometry":{"type":"Point","coordinates":[-96.6608705,32.8654956]}},{"type":"Feature","properties":{"location_id":"holidayinn","title":"Holiday Inn","address":"700 Central Parkway East","city":"Plano","state":"TX","zip":75074},"geometry":{"type":"Point","coordinates":[-96.706372,33.026823]}},{"type":"Feature","properties":{"location_id":"infomart","title":"Infomart","address":"1950 North Stemmons Freeway","city":"Dallas","state":"TX","zip":75207},"geometry":{"type":"Point","coordinates":[-96.819444,32.800553]}},{"type":"Feature","properties":{"location_id":"hampton","title":"Hampton Inn & Suites","address":"1700 Rodeo Drive","city":"Mesquite","state":"TX","zip":75149},"geometry":{"type":"Point","coordinates":[-96.623838,32.761571]}},{"type":"Feature","properties":{"location_id":"adamsmark","title":"Adams Mark","address":"400 North Olive Street","city":"Dallas","state":"TX","zip":75201},"geometry":{"type":"Point","coordinates":[-96.794776,32.78474]}},{"type":"Feature","properties":{"location_id":"gaylord","title":"Gaylord Texan Resort","address":"1501 Gaylord Trail","city":"Grapevine","state":"TX","zip":76051},"geometry":{"type":"Point","coordinates":[-97.064425,32.954688]}},{"type":"Feature","properties":{"location_id":"anatole","title":"Hilton Anatole","address":"2201 North Stemmons Freeway","city":"Dallas","state":"TX","zip":75207},"geometry":{"type":"Point","coordinates":[-96.83025,32.800393]}}]}