{"type":"FeatureCollection","features":[{"type":"Feature","properties":{"location_id":"bestwestern","name":"Best Western Inn","address":"12721 I-635, Garland, TX 75041"},"geometry":{"type":"Point","coordinates":[-96.6608705,32.8654956]}},{"type":"Feature","properties":{"location_id":"holidayinn","name":"Holiday Inn","address":"700 Central Parkway East, Plano, TX 75074"},"geometry":{"type":"Point","coordinates":[-96.706372,33.026823]}},{"type":"Feature","properties":{"location_id":"infomart","name":"Infomart","address":"1950 North Stemmons Freeway, Dallas, TX 75207"},"geometry":{"type":"Point","coordinates":[-96.819444,32.800553]}},{"type":"Feature","properties":{"location_id":"hampton","name":"Hampton Inn & Suites","address":"1700 Rodeo Drive, Mesquite, TX 75149"},"geometry":{"type":"Point","coordinates":[-96.623838,32.761571]}},{"type":"Feature","properties":{"location_id":"adamsmark","name":"Adams Mark","address":"400 North Olive Street, Dallas, TX 75201"},"geometry":{"type":"Point","coordinates":[-96.794776,32.78474]}},{"type":"Feature","properties":{"location_id":"gaylord","name":"Gaylord Texan Resort","address":"1501 Gaylord Trail, Grapevine, TX 76051"},"geometry":{"type":"Point","coordinates":[-97.064425,32.954688]}},{"type":"Feature","properties":{"location_id":"anatole","name":"Hilton Anatole","address":"2201 North Stemmons Freeway, Dallas, TX 75207"},"geometry":{"type":"Point","coordinates":[-96.83025,32.800393]}}]}